<root>
    <marker>
        <timecode>00:00:00:00</timecode>
        <title>Inizio</title>
        <longitude>12.370511</longitude>
        <latitude>45.416233</latitude>
    </marker>
    <marker>
        <timecode>00:00:21:17</timecode>
        <title>Sponda destra</title>
        <longitude>12.369886</longitude>
        <latitude>45.414397</latitude>
    </marker>
    <marker>
        <timecode>00:00:30:14</timecode>
        <title>barchette</title>
        <longitude>12.368384</longitude>
        <latitude>45.408979</latitude>
    </marker>
    <marker>
        <timecode>00:00:50:12</timecode>
        <title>strada</title>
        <longitude>12.366305</longitude>
        <latitude>45.404293</latitude>
    </marker>
    <marker>
        <timecode>00:01:00:02</timecode>
        <title>beach1</title>
        <longitude>12.357875</longitude>
        <latitude>45.393293</latitude>
    </marker>
    <marker>
        <timecode>00:01:10:15</timecode>
        <title>beach2</title>
        <longitude>12.349030</longitude>
        <latitude>45.380880</latitude>
    </marker>
    <marker>
        <timecode>00:01:19:22</timecode>
        <title>laghetto</title>
        <longitude>12.342893</longitude>
        <latitude>45.373441</latitude>
    </marker>
    <marker>
        <timecode>00:01:28:22</timecode>
        <title>piazza</title>
        <longitude>12.340445</longitude>
        <latitude>45.372466</latitude>
    </marker>
    <marker>
        <timecode>00:01:47:12</timecode>
        <title>Fine Lido</title>
        <longitude>12.311613</longitude>
        <latitude>45.339110</latitude>
    </marker>
    <marker>
        <timecode>00:02:27:07</timecode>
        <title>Inizio pellestrina</title>
        <longitude>12.291783</longitude>
        <latitude>45.239188</latitude>
    </marker>
    <marker>
        <timecode>00:02:37:02</timecode>
        <title>prima del ponte</title>
        <longitude>12.297024</longitude>
        <latitude>45.245501</latitude>
    </marker>
    <marker>
        <timecode>00:02:45:10</timecode>
        <title>ponte</title>
        <longitude>12.299227</longitude>
        <latitude>45.248014</latitude>
    </marker>
    <marker>
        <timecode>00:03:02:13</timecode>
        <title>Paese</title>
        <longitude>12.299804</longitude>
        <latitude>45.267243</latitude>
    </marker>
    <marker>
        <timecode>00:03:19:19</timecode>
        <title>Fine paese</title>
        <longitude>12.312169</longitude>
        <latitude>45.312084</latitude>
    </marker>
    <marker>
        <timecode>00:03:37:04</timecode>
        <title>Molo</title>
        <longitude>12.318768</longitude>
        <latitude>45.324551</latitude>
    </marker>
    <marker>
        <timecode>00:04:01:20</timecode>
        <title>Di nuovo Lido</title>
        <longitude>12.309487</longitude>
        <latitude>45.343125</latitude>
    </marker>
    <marker>
        <timecode>00:04:18:22</timecode>
        <title>Marciapiede</title>
        <longitude>12.319871</longitude>
        <latitude>45.349854</latitude>
    </marker>
    <marker>
        <timecode>00:04:35:16</timecode>
        <title>Alberi</title>
        <longitude>12.330007</longitude>
        <latitude>45.358676</latitude>
    </marker>
    <marker>
        <timecode>00:04:52:12</timecode>
        <title>Stradone</title>
        <longitude>12.360109</longitude>
        <latitude>45.403290</latitude>
    </marker>
    <marker>
        <timecode>00:05:08:20</timecode>
        <title>Finale</title>
        <longitude>12.365823</longitude>
        <latitude>45.408781</latitude>
    </marker>
</root>